speed=500@10s
$GPGGA,000000.00,5333.86547184,N,00104.33452825,W,1,05,2.87,+0.00,M,00.000,M,,*57
$GPGGA,000000.10,5333.86547184,N,00104.33452825,W,1,05,2.87,+0.00,M,00.000,M,,*56
$GPGGA,000000.20,5333.86547184,N,00104.33452825,W,1,05,2.87,+0.00,M,00.000,M,,*55
$GPGGA,000000.30,5333.86547184,N,00104.33452825,W,1,05,2.87,+0.00,M,00.000,M,,*54
$GPGGA,000000.40,5333.86547184,N,00104.33452825,W,1,05,2.87,+0.00,M,00.000,M,,*53
$GPGGA,000000.50,5333.86547184,N,00104.33452825,W,1,05,2.87,+0.00,M,00.000,M,,*52
$GPGGA,000000.60,5333.86547184,N,00104.33452825,W,1,05,2.87,+0.00,M,00.000,M,,*51
$GPGGA,000000.70,5333.86547184,N,00104.33452825,W,1,05,2.87,+0.00,M,00.000,M,,*50
$GPGGA,000000.80,5333.86547184,N,00104.33452825,W,1,05,2.87,+0.00,M,00.000,M,,*5F
$GPGGA,000000.90,5333.86547184,N,00104.33452825,W,1,05,2.87,+0.00,M,00.000,M,,*5E
$GPGGA,000001.00,5333.86547184,N,00104.33452825,W,1,05,2.87,+0.00,M,00.000,M,,*56
$GPGGA,000001.10,5333.86547184,N,00104.33452825,W,1,05,2.87,+0.00,M,00.000,M,,*57
$GPGGA,000001.20,5333.86547184,N,00104.33452825,W,1,05,2.87,+0.00,M,00.000,M,,*54
$GPGGA,000001.30,5333.86547184,N,00104.33452825,W,1,05,2.87,+0.00,M,00.000,M,,*55
$GPGGA,000001.40,5333.86547184,N,00104.33452825,W,1,05,2.87,+0.00,M,00.000,M,,*52
$GPGGA,000001.50,5333.86547184,N,00104.33452825,W,1,05,2.87,+0.00,M,00.000,M,,*53
$GPGGA,000001.60,5333.86547184,N,00104.33452825,W,1,05,2.87,+0.00,M,00.000,M,,*50
$GPGGA,000001.70,5333.86547184,N,00104.33452825,W,1,05,2.87,+0.00,M,00.000,M,,*51
$GPGGA,000001.80,5333.86547184,N,00104.33452825,W,1,05,2.87,+0.00,M,00.000,M,,*5E
$GPGGA,000001.90,5333.86547184,N,00104.33452825,W,1,05,2.87,+0.00,M,00.000,M,,*5F
$GPGGA,000002.00,5333.86547184,N,00104.33452825,W,1,05,2.87,+0.00,M,00.000,M,,*55
$GPGGA,000002.10,5333.86547184,N,00104.33452825,W,1,05,2.87,+0.00,M,00.000,M,,*54
$GPGGA,000002.20,5333.86547184,N,00104.33452825,W,1,05,2.87,+0.00,M,00.000,M,,*57
$GPGGA,000002.30,5333.86547184,N,00104.33452825,W,1,05,2.87,+0.00,M,00.000,M,,*56
$GPGGA,000002.40,5333.86547184,N,00104.33452825,W,1,05,2.87,+0.00,M,00.000,M,,*51
$GPGGA,000002.50,5333.86547184,N,00104.33452825,W,1,05,2.87,+0.00,M,00.000,M,,*50
$GPGGA,000002.60,5333.86547184,N,00104.33452825,W,1,05,2.87,+0.00,M,00.000,M,,*53
$GPGGA,000002.70,5333.86547184,N,00104.33452825,W,1,05,2.87,+0.00,M,00.000,M,,*52
$GPGGA,000002.80,5333.86547184,N,00104.33452825,W,1,05,2.87,+0.00,M,00.000,M,,*5D
$GPGGA,000002.90,5333.86547184,N,00104.33452825,W,1,05,2.87,+0.00,M,00.000,M,,*5C
$GPGGA,000003.00,5333.86547184,N,00104.33452825,W,1,05,2.87,+0.00,M,00.000,M,,*54
$GPGGA,000003.10,5333.86547184,N,00104.33452825,W,1,05,2.87,+0.00,M,00.000,M,,*55
$GPGGA,000003.20,5333.86547184,N,00104.33452825,W,1,05,2.87,+0.00,M,00.000,M,,*56
$GPGGA,000003.30,5333.86547184,N,00104.33452825,W,1,05,2.87,+0.00,M,00.000,M,,*57
$GPGGA,000003.40,5333.86547184,N,00104.33452825,W,1,05,2.87,+0.00,M,00.000,M,,*50
$GPGGA,000003.50,5333.86547184,N,00104.33452825,W,1,05,2.87,+0.00,M,00.000,M,,*51
$GPGGA,000003.60,5333.86547184,N,00104.33452825,W,1,05,2.87,+0.00,M,00.000,M,,*52
$GPGGA,000003.70,5333.86547184,N,00104.33452825,W,1,05,2.87,+0.00,M,00.000,M,,*53
$GPGGA,000003.80,5333.86547184,N,00104.33452825,W,1,05,2.87,+0.00,M,00.000,M,,*5C
$GPGGA,000003.90,5333.86547184,N,00104.33452825,W,1,05,2.87,+0.00,M,00.000,M,,*5D
$GPGGA,000004.00,5333.86547184,N,00104.33452825,W,1,05,2.87,+0.00,M,00.000,M,,*53
$GPGGA,000004.10,5333.86547184,N,00104.33452825,W,1,05,2.87,+0.00,M,00.000,M,,*52
$GPGGA,000004.20,5333.86547184,N,00104.33452825,W,1,05,2.87,+0.00,M,00.000,M,,*51
$GPGGA,000004.30,5333.86547184,N,00104.33452825,W,1,05,2.87,+0.00,M,00.000,M,,*50
$GPGGA,000004.40,5333.86547184,N,00104.33452825,W,1,05,2.87,+0.00,M,00.000,M,,*57
$GPGGA,000004.50,5333.86547184,N,00104.33452825,W,1,05,2.87,+0.00,M,00.000,M,,*56
$GPGGA,000004.60,5333.86547184,N,00104.33452825,W,1,05,2.87,+0.00,M,00.000,M,,*55
$GPGGA,000004.70,5333.86547184,N,00104.33452825,W,1,05,2.87,+0.00,M,00.000,M,,*54
$GPGGA,000004.80,5333.86547184,N,00104.33452825,W,1,05,2.87,+0.00,M,00.000,M,,*5B
$GPGGA,000004.90,5333.86547184,N,00104.33452825,W,1,05,2.87,+0.00,M,00.000,M,,*5A
$GPGGA,000005.00,5333.86547184,N,00104.33452825,W,1,05,2.87,+0.00,M,00.000,M,,*52
$GPGGA,000005.10,5333.86547184,N,00104.33452825,W,1,05,2.87,+0.00,M,00.000,M,,*53
$GPGGA,000005.20,5333.86547184,N,00104.33452825,W,1,05,2.87,+0.00,M,00.000,M,,*50
$GPGGA,000005.30,5333.86547184,N,00104.33452825,W,1,05,2.87,+0.00,M,00.000,M,,*51
$GPGGA,000005.40,5333.86547184,N,00104.33452825,W,1,05,2.87,+0.00,M,00.000,M,,*56
$GPGGA,000005.50,5333.86547184,N,00104.33452825,W,1,05,2.87,+0.00,M,00.000,M,,*57
$GPGGA,000005.60,5333.86547184,N,00104.33452825,W,1,05,2.87,+0.00,M,00.000,M,,*54
$GPGGA,000005.70,5333.86547184,N,00104.33452825,W,1,05,2.87,+0.00,M,00.000,M,,*55
$GPGGA,000005.80,5333.86547184,N,00104.33452825,W,1,05,2.87,+0.00,M,00.000,M,,*5A
$GPGGA,000005.90,5333.86547184,N,00104.33452825,W,1,05,2.87,+0.00,M,00.000,M,,*5B
$GPGGA,000006.00,5333.86547184,N,00104.33452825,W,1,05,2.87,+0.00,M,00.000,M,,*51
$GPGGA,000006.10,5333.86547184,N,00104.33452825,W,1,05,2.87,+0.00,M,00.000,M,,*50
$GPGGA,000006.20,5333.86547184,N,00104.33452825,W,1,05,2.87,+0.00,M,00.000,M,,*53
$GPGGA,000006.30,5333.86547184,N,00104.33452825,W,1,05,2.87,+0.00,M,00.000,M,,*52
$GPGGA,000006.40,5333.86547184,N,00104.33452825,W,1,05,2.87,+0.00,M,00.000,M,,*55
$GPGGA,000006.50,5333.86547184,N,00104.33452825,W,1,05,2.87,+0.00,M,00.000,M,,*54
$GPGGA,000006.60,5333.86547184,N,00104.33452825,W,1,05,2.87,+0.00,M,00.000,M,,*57
$GPGGA,000006.70,5333.86547184,N,00104.33452825,W,1,05,2.87,+0.00,M,00.000,M,,*56
$GPGGA,000006.80,5333.86547184,N,00104.33452825,W,1,05,2.87,+0.00,M,00.000,M,,*59
$GPGGA,000006.90,5333.86547184,N,00104.33452825,W,1,05,2.87,+0.00,M,00.000,M,,*58
$GPGGA,000007.00,5333.86547184,N,00104.33452825,W,1,05,2.87,+0.00,M,00.000,M,,*50
$GPGGA,000007.10,5333.86547184,N,00104.33452825,W,1,05,2.87,+0.00,M,00.000,M,,*51
$GPGGA,000007.20,5333.86547184,N,00104.33452825,W,1,05,2.87,+0.00,M,00.000,M,,*52
$GPGGA,000007.30,5333.86547184,N,00104.33452825,W,1,05,2.87,+0.00,M,00.000,M,,*53
$GPGGA,000007.40,5333.86547184,N,00104.33452825,W,1,05,2.87,+0.00,M,00.000,M,,*54
$GPGGA,000007.50,5333.86547184,N,00104.33452825,W,1,05,2.87,+0.00,M,00.000,M,,*55
$GPGGA,000007.60,5333.86547184,N,00104.33452825,W,1,05,2.87,+0.00,M,00.000,M,,*56
$GPGGA,000007.70,5333.86547184,N,00104.33452825,W,1,05,2.87,+0.00,M,00.000,M,,*57
$GPGGA,000007.80,5333.86547184,N,00104.33452825,W,1,05,2.87,+0.00,M,00.000,M,,*58
$GPGGA,000007.90,5333.86547184,N,00104.33452825,W,1,05,2.87,+0.00,M,00.000,M,,*59
$GPGGA,000008.00,5333.86547184,N,00104.33452825,W,1,05,2.87,+0.00,M,00.000,M,,*5F
$GPGGA,000008.10,5333.86547184,N,00104.33452825,W,1,05,2.87,+0.00,M,00.000,M,,*5E
$GPGGA,000008.20,5333.86547184,N,00104.33452825,W,1,05,2.87,+0.00,M,00.000,M,,*5D
$GPGGA,000008.30,5333.86547184,N,00104.33452825,W,1,05,2.87,+0.00,M,00.000,M,,*5C
$GPGGA,000008.40,5333.86547184,N,00104.33452825,W,1,05,2.87,+0.00,M,00.000,M,,*5B
$GPGGA,000008.50,5333.86547184,N,00104.33452825,W,1,05,2.87,+0.00,M,00.000,M,,*5A
$GPGGA,000008.60,5333.86547184,N,00104.33452825,W,1,05,2.87,+0.00,M,00.000,M,,*59
$GPGGA,000008.70,5333.86547184,N,00104.33452825,W,1,05,2.87,+0.00,M,00.000,M,,*58
$GPGGA,000008.80,5333.86547184,N,00104.33452825,W,1,05,2.87,+0.00,M,00.000,M,,*57
$GPGGA,000008.90,5333.86547184,N,00104.33452825,W,1,05,2.87,+0.00,M,00.000,M,,*56
$GPGGA,000009.00,5333.86547184,N,00104.33452825,W,1,05,2.87,+0.00,M,00.000,M,,*5E
$GPGGA,000009.10,5333.86547184,N,00104.33452825,W,1,05,2.87,+0.00,M,00.000,M,,*5F
$GPGGA,000009.20,5333.86547184,N,00104.33452825,W,1,05,2.87,+0.00,M,00.000,M,,*5C
$GPGGA,000009.30,5333.86547184,N,00104.33452825,W,1,05,2.87,+0.00,M,00.000,M,,*5D
$GPGGA,000009.40,5333.86547184,N,00104.33452825,W,1,05,2.87,+0.00,M,00.000,M,,*5A
$GPGGA,000009.50,5333.86547184,N,00104.33452825,W,1,05,2.87,+0.00,M,00.000,M,,*5B
$GPGGA,000009.60,5333.86547184,N,00104.33452825,W,1,05,2.87,+0.00,M,00.000,M,,*58
$GPGGA,000009.70,5333.86547184,N,00104.33452825,W,1,05,2.87,+0.00,M,00.000,M,,*59
$GPGGA,000009.80,5333.86547184,N,00104.33452825,W,1,05,2.87,+0.00,M,00.000,M,,*56
$GPGGA,000009.90,5333.86547184,N,00104.33452825,W,1,05,2.87,+0.00,M,00.000,M,,*57
$GPGGA,000010.00,5333.86547184,N,00104.33452825,W,1,05,2.87,+0.00,M,00.000,M,,*56
$GPGGA,000010.10,5333.86547184,N,00104.33452825,W,1,05,2.87,+0.00,M,00.000,M,,*57
$GPGGA,000010.20,5333.86547184,N,00104.33452825,W,1,05,2.87,+0.00,M,00.000,M,,*54
$GPGGA,000010.30,5333.86547184,N,00104.33452825,W,1,05,2.87,+0.00,M,00.000,M,,*55
$GPGGA,000010.40,5333.86547184,N,00104.33452825,W,1,05,2.87,+0.00,M,00.000,M,,*52
$GPGGA,000010.50,5333.86547184,N,00104.33452825,W,1,05,2.87,+0.00,M,00.000,M,,*53
$GPGGA,000010.60,5333.86547184,N,00104.33452825,W,1,05,2.87,+0.00,M,00.000,M,,*50
$GPGGA,000010.70,5333.86547184,N,00104.33452825,W,1,05,2.87,+0.00,M,00.000,M,,*51
$GPGGA,000010.80,5333.86547184,N,00104.33452825,W,1,05,2.87,+0.00,M,00.000,M,,*5E
$GPGGA,000010.90,5333.86547184,N,00104.33452825,W,1,05,2.87,+0.00,M,00.000,M,,*5F
$GPGGA,000011.00,5333.86547184,N,00104.33452825,W,1,05,2.87,+0.00,M,00.000,M,,*57
$GPGGA,000011.10,5333.86547184,N,00104.33452825,W,1,05,2.87,+0.00,M,00.000,M,,*56
$GPGGA,000011.20,5333.86547184,N,00104.33452825,W,1,05,2.87,+0.00,M,00.000,M,,*55
$GPGGA,000011.30,5333.86547184,N,00104.33452825,W,1,05,2.87,+0.00,M,00.000,M,,*54
$GPGGA,000011.40,5333.86547184,N,00104.33452825,W,1,05,2.87,+0.00,M,00.000,M,,*53
$GPGGA,000011.50,5333.86547184,N,00104.33452825,W,1,05,2.87,+0.00,M,00.000,M,,*52
$GPGGA,000011.60,5333.86547184,N,00104.33452825,W,1,05,2.87,+0.00,M,00.000,M,,*51
$GPGGA,000011.70,5333.86547184,N,00104.33452825,W,1,05,2.87,+0.00,M,00.000,M,,*50
$GPGGA,000011.80,5333.86547184,N,00104.33452825,W,1,05,2.87,+0.00,M,00.000,M,,*5F
$GPGGA,000011.90,5333.86547184,N,00104.33452825,W,1,05,2.87,+0.00,M,00.000,M,,*5E
$GPGGA,000012.00,5333.86547184,N,00104.33452825,W,1,05,2.87,+0.00,M,00.000,M,,*54
$GPGGA,000012.10,5333.86547184,N,00104.33452825,W,1,05,2.87,+0.00,M,00.000,M,,*55
$GPGGA,000012.20,5333.86547184,N,00104.33452825,W,1,05,2.87,+0.00,M,00.000,M,,*56
$GPGGA,000012.30,5333.86547184,N,00104.33452825,W,1,05,2.87,+0.00,M,00.000,M,,*57
$GPGGA,000012.40,5333.86547184,N,00104.33452825,W,1,05,2.87,+0.00,M,00.000,M,,*50
$GPGGA,000012.50,5333.86547184,N,00104.33452825,W,1,05,2.87,+0.00,M,00.000,M,,*51
$GPGGA,000012.60,5333.86547184,N,00104.33452825,W,1,05,2.87,+0.00,M,00.000,M,,*52
$GPGGA,000012.70,5333.86547184,N,00104.33452825,W,1,05,2.87,+0.00,M,00.000,M,,*53
$GPGGA,000012.80,5333.86547184,N,00104.33452825,W,1,05,2.87,+0.00,M,00.000,M,,*5C
$GPGGA,000012.90,5333.86547184,N,00104.33452825,W,1,05,2.87,+0.00,M,00.000,M,,*5D
$GPGGA,000013.00,5333.86547184,N,00104.33452825,W,1,05,2.87,+0.00,M,00.000,M,,*55
$GPGGA,000013.10,5333.86547184,N,00104.33452825,W,1,05,2.87,+0.00,M,00.000,M,,*54
$GPGGA,000013.20,5333.86547184,N,00104.33452825,W,1,05,2.87,+0.00,M,00.000,M,,*57
$GPGGA,000013.30,5333.86547184,N,00104.33452825,W,1,05,2.87,+0.00,M,00.000,M,,*56
$GPGGA,000013.40,5333.86547184,N,00104.33452825,W,1,05,2.87,+0.00,M,00.000,M,,*51
$GPGGA,000013.50,5333.86547184,N,00104.33452825,W,1,05,2.87,+0.00,M,00.000,M,,*50
$GPGGA,000013.60,5333.86547184,N,00104.33452825,W,1,05,2.87,+0.00,M,00.000,M,,*53
$GPGGA,000013.70,5333.86547184,N,00104.33452825,W,1,05,2.87,+0.00,M,00.000,M,,*52
$GPGGA,000013.80,5333.86547184,N,00104.33452825,W,1,05,2.87,+0.00,M,00.000,M,,*5D
$GPGGA,000013.90,5333.86547184,N,00104.33452825,W,1,05,2.87,+0.00,M,00.000,M,,*5C
$GPGGA,000014.00,5333.86547184,N,00104.33452825,W,1,05,2.87,+0.00,M,00.000,M,,*52
$GPGGA,000014.10,5333.86547184,N,00104.33452825,W,1,05,2.87,+0.00,M,00.000,M,,*53
$GPGGA,000014.20,5333.86547184,N,00104.33452825,W,1,05,2.87,+0.00,M,00.000,M,,*50
$GPGGA,000014.30,5333.86547184,N,00104.33452825,W,1,05,2.87,+0.00,M,00.000,M,,*51
$GPGGA,000014.40,5333.86547184,N,00104.33452825,W,1,05,2.87,+0.00,M,00.000,M,,*56
$GPGGA,000014.50,5333.86547184,N,00104.33452825,W,1,05,2.87,+0.00,M,00.000,M,,*57
$GPGGA,000014.60,5333.86547184,N,00104.33452825,W,1,05,2.87,+0.00,M,00.000,M,,*54
$GPGGA,000014.70,5333.86547184,N,00104.33452825,W,1,05,2.87,+0.00,M,00.000,M,,*55
$GPGGA,000014.80,5333.86547184,N,00104.33452825,W,1,05,2.87,+0.00,M,00.000,M,,*5A
$GPGGA,000014.90,5333.86547184,N,00104.33452825,W,1,05,2.87,+0.00,M,00.000,M,,*5B
$GPGGA,000015.00,5333.86547184,N,00104.33452825,W,1,05,2.87,+0.00,M,00.000,M,,*53
$GPGGA,000015.10,5333.86547184,N,00104.33452825,W,1,05,2.87,+0.00,M,00.000,M,,*52
$GPGGA,000015.20,5333.86547184,N,00104.33452825,W,1,05,2.87,+0.00,M,00.000,M,,*51
$GPGGA,000015.30,5333.86547184,N,00104.33452825,W,1,05,2.87,+0.00,M,00.000,M,,*50
$GPGGA,000015.40,5333.86547184,N,00104.33452825,W,1,05,2.87,+0.00,M,00.000,M,,*57
$GPGGA,000015.50,5333.86547184,N,00104.33452825,W,1,05,2.87,+0.00,M,00.000,M,,*56
$GPGGA,000015.60,5333.86547184,N,00104.33452825,W,1,05,2.87,+0.00,M,00.000,M,,*55
$GPGGA,000015.70,5333.86547184,N,00104.33452825,W,1,05,2.87,+0.00,M,00.000,M,,*54
$GPGGA,000015.80,5333.86547184,N,00104.33452825,W,1,05,2.87,+0.00,M,00.000,M,,*5B
$GPGGA,000015.90,5333.86547184,N,00104.33452825,W,1,05,2.87,+0.00,M,00.000,M,,*5A
$GPGGA,000016.00,5333.86547184,N,00104.33452825,W,1,05,2.87,+0.00,M,00.000,M,,*50
$GPGGA,000016.10,5333.86547184,N,00104.33452825,W,1,05,2.87,+0.00,M,00.000,M,,*51
$GPGGA,000016.20,5333.86547184,N,00104.33452825,W,1,05,2.87,+0.00,M,00.000,M,,*52
$GPGGA,000016.30,5333.86547184,N,00104.33452825,W,1,05,2.87,+0.00,M,00.000,M,,*53
$GPGGA,000016.40,5333.86547184,N,00104.33452825,W,1,05,2.87,+0.00,M,00.000,M,,*54
$GPGGA,000016.50,5333.86547184,N,00104.33452825,W,1,05,2.87,+0.00,M,00.000,M,,*55
$GPGGA,000016.60,5333.86547184,N,00104.33452825,W,1,05,2.87,+0.00,M,00.000,M,,*56
$GPGGA,000016.70,5333.86547184,N,00104.33452825,W,1,05,2.87,+0.00,M,00.000,M,,*57
$GPGGA,000016.80,5333.86547184,N,00104.33452825,W,1,05,2.87,+0.00,M,00.000,M,,*58
$GPGGA,000016.90,5333.86547184,N,00104.33452825,W,1,05,2.87,+0.00,M,00.000,M,,*59
$GPGGA,000017.00,5333.86547184,N,00104.33452825,W,1,05,2.87,+0.00,M,00.000,M,,*51
$GPGGA,000017.10,5333.86547184,N,00104.33452825,W,1,05,2.87,+0.00,M,00.000,M,,*50
$GPGGA,000017.20,5333.86547184,N,00104.33452825,W,1,05,2.87,+0.00,M,00.000,M,,*53
$GPGGA,000017.30,5333.86547184,N,00104.33452825,W,1,05,2.87,+0.00,M,00.000,M,,*52
$GPGGA,000017.40,5333.86547184,N,00104.33452825,W,1,05,2.87,+0.00,M,00.000,M,,*55
$GPGGA,000017.50,5333.86547184,N,00104.33452825,W,1,05,2.87,+0.00,M,00.000,M,,*54
$GPGGA,000017.60,5333.86547184,N,00104.33452825,W,1,05,2.87,+0.00,M,00.000,M,,*57
$GPGGA,000017.70,5333.86547184,N,00104.33452825,W,1,05,2.87,+0.00,M,00.000,M,,*56
$GPGGA,000017.80,5333.86547184,N,00104.33452825,W,1,05,2.87,+0.00,M,00.000,M,,*59
$GPGGA,000017.90,5333.86547184,N,00104.33452825,W,1,05,2.87,+0.00,M,00.000,M,,*58
$GPGGA,000018.00,5333.86547184,N,00104.33452825,W,1,05,2.87,+0.00,M,00.000,M,,*5E
$GPGGA,000018.10,5333.86547184,N,00104.33452825,W,1,05,2.87,+0.00,M,00.000,M,,*5F
$GPGGA,000018.20,5333.86547184,N,00104.33452825,W,1,05,2.87,+0.00,M,00.000,M,,*5C
$GPGGA,000018.30,5333.86547184,N,00104.33452825,W,1,05,2.87,+0.00,M,00.000,M,,*5D
$GPGGA,000018.40,5333.86547184,N,00104.33452825,W,1,05,2.87,+0.00,M,00.000,M,,*5A
$GPGGA,000018.50,5333.86547184,N,00104.33452825,W,1,05,2.87,+0.00,M,00.000,M,,*5B
$GPGGA,000018.60,5333.86547184,N,00104.33452825,W,1,05,2.87,+0.00,M,00.000,M,,*58
$GPGGA,000018.70,5333.86547184,N,00104.33452825,W,1,05,2.87,+0.00,M,00.000,M,,*59
$GPGGA,000018.80,5333.86547184,N,00104.33452825,W,1,05,2.87,+0.00,M,00.000,M,,*56
$GPGGA,000018.90,5333.86547184,N,00104.33452825,W,1,05,2.87,+0.00,M,00.000,M,,*57
$GPGGA,000019.00,5333.86547184,N,00104.33452825,W,1,05,2.87,+0.00,M,00.000,M,,*5F
$GPGGA,000019.10,5333.86547184,N,00104.33452825,W,1,05,2.87,+0.00,M,00.000,M,,*5E
$GPGGA,000019.20,5333.86547184,N,00104.33452825,W,1,05,2.87,+0.00,M,00.000,M,,*5D
$GPGGA,000019.30,5333.86547184,N,00104.33452825,W,1,05,2.87,+0.00,M,00.000,M,,*5C
$GPGGA,000019.40,5333.86547184,N,00104.33452825,W,1,05,2.87,+0.00,M,00.000,M,,*5B
$GPGGA,000019.50,5333.86547184,N,00104.33452825,W,1,05,2.87,+0.00,M,00.000,M,,*5A
$GPGGA,000019.60,5333.86547184,N,00104.33452825,W,1,05,2.87,+0.00,M,00.000,M,,*59
$GPGGA,000019.70,5333.86547184,N,00104.33452825,W,1,05,2.87,+0.00,M,00.000,M,,*58
$GPGGA,000019.80,5333.86547184,N,00104.33452825,W,1,05,2.87,+0.00,M,00.000,M,,*57
$GPGGA,000019.90,5333.86547184,N,00104.33452825,W,1,05,2.87,+0.00,M,00.000,M,,*56
$GPGGA,000020.00,5333.86547184,N,00104.33452825,W,1,05,2.87,+0.00,M,00.000,M,,*55
$GPGGA,000020.10,5333.86547184,N,00104.33452825,W,1,05,2.87,+0.00,M,00.000,M,,*54
$GPGGA,000020.20,5333.86547184,N,00104.33452825,W,1,05,2.87,+0.00,M,00.000,M,,*57
$GPGGA,000020.30,5333.86547184,N,00104.33452825,W,1,05,2.87,+0.00,M,00.000,M,,*56
$GPGGA,000020.40,5333.86547184,N,00104.33452825,W,1,05,2.87,+0.00,M,00.000,M,,*51
$GPGGA,000020.50,5333.86547184,N,00104.33452825,W,1,05,2.87,+0.00,M,00.000,M,,*50
$GPGGA,000020.60,5333.86547184,N,00104.33452825,W,1,05,2.87,+0.00,M,00.000,M,,*53
$GPGGA,000020.70,5333.86547184,N,00104.33452825,W,1,05,2.87,+0.00,M,00.000,M,,*52
$GPGGA,000020.80,5333.86547184,N,00104.33452825,W,1,05,2.87,+0.00,M,00.000,M,,*5D
$GPGGA,000020.90,5333.86547184,N,00104.33452825,W,1,05,2.87,+0.00,M,00.000,M,,*5C
$GPGGA,000021.00,5333.86547184,N,00104.33452825,W,1,05,2.87,+0.00,M,00.000,M,,*54
$GPGGA,000021.10,5333.86547184,N,00104.33452825,W,1,05,2.87,+0.00,M,00.000,M,,*55
$GPGGA,000021.20,5333.86547184,N,00104.33452825,W,1,05,2.87,+0.00,M,00.000,M,,*56
$GPGGA,000021.30,5333.86547184,N,00104.33452825,W,1,05,2.87,+0.00,M,00.000,M,,*57
$GPGGA,000021.40,5333.86547184,N,00104.33452825,W,1,05,2.87,+0.00,M,00.000,M,,*50
$GPGGA,000021.50,5333.86547184,N,00104.33452825,W,1,05,2.87,+0.00,M,00.000,M,,*51
$GPGGA,000021.60,5333.86547184,N,00104.33452825,W,1,05,2.87,+0.00,M,00.000,M,,*52
$GPGGA,000021.70,5333.86547184,N,00104.33452825,W,1,05,2.87,+0.00,M,00.000,M,,*53
$GPGGA,000021.80,5333.86547184,N,00104.33452825,W,1,05,2.87,+0.00,M,00.000,M,,*5C
$GPGGA,000021.90,5333.86547184,N,00104.33452825,W,1,05,2.87,+0.00,M,00.000,M,,*5D
$GPGGA,000022.00,5333.86547184,N,00104.33452825,W,1,05,2.87,+0.00,M,00.000,M,,*57
$GPGGA,000022.10,5333.86547184,N,00104.33452825,W,1,05,2.87,+0.00,M,00.000,M,,*56
$GPGGA,000022.20,5333.86547184,N,00104.33452825,W,1,05,2.87,+0.00,M,00.000,M,,*55
$GPGGA,000022.30,5333.86547184,N,00104.33452825,W,1,05,2.87,+0.00,M,00.000,M,,*54
$GPGGA,000022.40,5333.86547184,N,00104.33452825,W,1,05,2.87,+0.00,M,00.000,M,,*53
$GPGGA,000022.50,5333.86547184,N,00104.33452825,W,1,05,2.87,+0.00,M,00.000,M,,*52
$GPGGA,000022.60,5333.86547184,N,00104.33452825,W,1,05,2.87,+0.00,M,00.000,M,,*51
$GPGGA,000022.70,5333.86547184,N,00104.33452825,W,1,05,2.87,+0.00,M,00.000,M,,*50
$GPGGA,000022.80,5333.86547184,N,00104.33452825,W,1,05,2.87,+0.00,M,00.000,M,,*5F
$GPGGA,000022.90,5333.86547184,N,00104.33452825,W,1,05,2.87,+0.00,M,00.000,M,,*5E
$GPGGA,000023.00,5333.86547184,N,00104.33452825,W,1,05,2.87,+0.00,M,00.000,M,,*56
$GPGGA,000023.10,5333.86547184,N,00104.33452825,W,1,05,2.87,+0.00,M,00.000,M,,*57
$GPGGA,000023.20,5333.86547184,N,00104.33452825,W,1,05,2.87,+0.00,M,00.000,M,,*54
$GPGGA,000023.30,5333.86547184,N,00104.33452825,W,1,05,2.87,+0.00,M,00.000,M,,*55
$GPGGA,000023.40,5333.86547184,N,00104.33452825,W,1,05,2.87,+0.00,M,00.000,M,,*52
$GPGGA,000023.50,5333.86547184,N,00104.33452825,W,1,05,2.87,+0.00,M,00.000,M,,*53
$GPGGA,000023.60,5333.86547184,N,00104.33452825,W,1,05,2.87,+0.00,M,00.000,M,,*50
$GPGGA,000023.70,5333.86547184,N,00104.33452825,W,1,05,2.87,+0.00,M,00.000,M,,*51
$GPGGA,000023.80,5333.86547184,N,00104.33452825,W,1,05,2.87,+0.00,M,00.000,M,,*5E
$GPGGA,000023.90,5333.86547184,N,00104.33452825,W,1,05,2.87,+0.00,M,00.000,M,,*5F
$GPGGA,000024.00,5333.86547184,N,00104.33452825,W,1,05,2.87,+0.00,M,00.000,M,,*51
$GPGGA,000024.10,5333.86547184,N,00104.33452825,W,1,05,2.87,+0.00,M,00.000,M,,*50
$GPGGA,000024.20,5333.86547184,N,00104.33452825,W,1,05,2.87,+0.00,M,00.000,M,,*53
$GPGGA,000024.30,5333.86547184,N,00104.33452825,W,1,05,2.87,+0.00,M,00.000,M,,*52
$GPGGA,000024.40,5333.86547184,N,00104.33452825,W,1,05,2.87,+0.00,M,00.000,M,,*55
$GPGGA,000024.50,5333.86547184,N,00104.33452825,W,1,05,2.87,+0.00,M,00.000,M,,*54
$GPGGA,000024.60,5333.86547184,N,00104.33452825,W,1,05,2.87,+0.00,M,00.000,M,,*57
$GPGGA,000024.70,5333.86547184,N,00104.33452825,W,1,05,2.87,+0.00,M,00.000,M,,*56
$GPGGA,000024.80,5333.86547184,N,00104.33452825,W,1,05,2.87,+0.00,M,00.000,M,,*59
$GPGGA,000024.90,5333.86547184,N,00104.33452825,W,1,05,2.87,+0.00,M,00.000,M,,*58
$GPGGA,000025.00,5333.86547184,N,00104.33452825,W,1,05,2.87,+0.00,M,00.000,M,,*50
$GPGGA,000025.10,5333.86547184,N,00104.33452825,W,1,05,2.87,+0.00,M,00.000,M,,*51
$GPGGA,000025.20,5333.86547184,N,00104.33452825,W,1,05,2.87,+0.00,M,00.000,M,,*52
$GPGGA,000025.30,5333.86547184,N,00104.33452825,W,1,05,2.87,+0.00,M,00.000,M,,*53
$GPGGA,000025.40,5333.86547184,N,00104.33452825,W,1,05,2.87,+0.00,M,00.000,M,,*54
$GPGGA,000025.50,5333.86547184,N,00104.33452825,W,1,05,2.87,+0.00,M,00.000,M,,*55
$GPGGA,000025.60,5333.86547184,N,00104.33452825,W,1,05,2.87,+0.00,M,00.000,M,,*56
$GPGGA,000025.70,5333.86547184,N,00104.33452825,W,1,05,2.87,+0.00,M,00.000,M,,*57
$GPGGA,000025.80,5333.86547184,N,00104.33452825,W,1,05,2.87,+0.00,M,00.000,M,,*58
$GPGGA,000025.90,5333.86547184,N,00104.33452825,W,1,05,2.87,+0.00,M,00.000,M,,*59
$GPGGA,000026.00,5333.86547184,N,00104.33452825,W,1,05,2.87,+0.00,M,00.000,M,,*53
$GPGGA,000026.10,5333.86547184,N,00104.33452825,W,1,05,2.87,+0.00,M,00.000,M,,*52
$GPGGA,000026.20,5333.86547184,N,00104.33452825,W,1,05,2.87,+0.00,M,00.000,M,,*51
$GPGGA,000026.30,5333.86547184,N,00104.33452825,W,1,05,2.87,+0.00,M,00.000,M,,*50
$GPGGA,000026.40,5333.86547184,N,00104.33452825,W,1,05,2.87,+0.00,M,00.000,M,,*57
$GPGGA,000026.50,5333.86547184,N,00104.33452825,W,1,05,2.87,+0.00,M,00.000,M,,*56
$GPGGA,000026.60,5333.86547184,N,00104.33452825,W,1,05,2.87,+0.00,M,00.000,M,,*55
$GPGGA,000026.70,5333.86547184,N,00104.33452825,W,1,05,2.87,+0.00,M,00.000,M,,*54
$GPGGA,000026.80,5333.86547184,N,00104.33452825,W,1,05,2.87,+0.00,M,00.000,M,,*5B
$GPGGA,000026.90,5333.86547184,N,00104.33452825,W,1,05,2.87,+0.00,M,00.000,M,,*5A
$GPGGA,000027.00,5333.86547184,N,00104.33452825,W,1,05,2.87,+0.00,M,00.000,M,,*52
$GPGGA,000027.10,5333.86547184,N,00104.33452825,W,1,05,2.87,+0.00,M,00.000,M,,*53
$GPGGA,000027.20,5333.86547184,N,00104.33452825,W,1,05,2.87,+0.00,M,00.000,M,,*50
$GPGGA,000027.30,5333.86547184,N,00104.33452825,W,1,05,2.87,+0.00,M,00.000,M,,*51
$GPGGA,000027.40,5333.86547184,N,00104.33452825,W,1,05,2.87,+0.00,M,00.000,M,,*56
$GPGGA,000027.50,5333.86547184,N,00104.33452825,W,1,05,2.87,+0.00,M,00.000,M,,*57
$GPGGA,000027.60,5333.86547184,N,00104.33452825,W,1,05,2.87,+0.00,M,00.000,M,,*54
$GPGGA,000027.70,5333.86547184,N,00104.33452825,W,1,05,2.87,+0.00,M,00.000,M,,*55
$GPGGA,000027.80,5333.86547184,N,00104.33452825,W,1,05,2.87,+0.00,M,00.000,M,,*5A
$GPGGA,000027.90,5333.86547184,N,00104.33452825,W,1,05,2.87,+0.00,M,00.000,M,,*5B
$GPGGA,000028.00,5333.86547184,N,00104.33452825,W,1,05,2.87,+0.00,M,00.000,M,,*5D
$GPGGA,000028.10,5333.86547184,N,00104.33452825,W,1,05,2.87,+0.00,M,00.000,M,,*5C
$GPGGA,000028.20,5333.86547184,N,00104.33452825,W,1,05,2.87,+0.00,M,00.000,M,,*5F
$GPGGA,000028.30,5333.86547184,N,00104.33452825,W,1,05,2.87,+0.00,M,00.000,M,,*5E
$GPGGA,000028.40,5333.86547184,N,00104.33452825,W,1,05,2.87,+0.00,M,00.000,M,,*59
$GPGGA,000028.50,5333.86547184,N,00104.33452825,W,1,05,2.87,+0.00,M,00.000,M,,*58
$GPGGA,000028.60,5333.86547184,N,00104.33452825,W,1,05,2.87,+0.00,M,00.000,M,,*5B
$GPGGA,000028.70,5333.86547184,N,00104.33452825,W,1,05,2.87,+0.00,M,00.000,M,,*5A
$GPGGA,000028.80,5333.86547184,N,00104.33452825,W,1,05,2.87,+0.00,M,00.000,M,,*55
$GPGGA,000028.90,5333.86547184,N,00104.33452825,W,1,05,2.87,+0.00,M,00.000,M,,*54
$GPGGA,000029.00,5333.86547184,N,00104.33452825,W,1,05,2.87,+0.00,M,00.000,M,,*5C
$GPGGA,000029.10,5333.86547184,N,00104.33452825,W,1,05,2.87,+0.00,M,00.000,M,,*5D
$GPGGA,000029.20,5333.86547184,N,00104.33452825,W,1,05,2.87,+0.00,M,00.000,M,,*5E
$GPGGA,000029.30,5333.86547184,N,00104.33452825,W,1,05,2.87,+0.00,M,00.000,M,,*5F
$GPGGA,000029.40,5333.86547184,N,00104.33452825,W,1,05,2.87,+0.00,M,00.000,M,,*58
$GPGGA,000029.50,5333.86547184,N,00104.33452825,W,1,05,2.87,+0.00,M,00.000,M,,*59
$GPGGA,000029.60,5333.86547184,N,00104.33452825,W,1,05,2.87,+0.00,M,00.000,M,,*5A
$GPGGA,000029.70,5333.86547184,N,00104.33452825,W,1,05,2.87,+0.00,M,00.000,M,,*5B
$GPGGA,000029.80,5333.86547184,N,00104.33452825,W,1,05,2.87,+0.00,M,00.000,M,,*54
$GPGGA,000029.90,5333.86547184,N,00104.33452825,W,1,05,2.87,+0.00,M,00.000,M,,*55
$GPGGA,000030.00,5333.86547184,N,00104.33452825,W,1,05,2.87,+0.00,M,00.000,M,,*54
$GPGGA,000030.10,5333.86547184,N,00104.33452825,W,1,05,2.87,+0.00,M,00.000,M,,*55
$GPGGA,000030.20,5333.86547184,N,00104.33452825,W,1,05,2.87,+0.00,M,00.000,M,,*56
$GPGGA,000030.30,5333.86547184,N,00104.33452825,W,1,05,2.87,+0.00,M,00.000,M,,*57
$GPGGA,000030.40,5333.86547184,N,00104.33452825,W,1,05,2.87,+0.00,M,00.000,M,,*50
$GPGGA,000030.50,5333.86547184,N,00104.33452825,W,1,05,2.87,+0.00,M,00.000,M,,*51
$GPGGA,000030.60,5333.86547184,N,00104.33452825,W,1,05,2.87,+0.00,M,00.000,M,,*52
$GPGGA,000030.70,5333.86547184,N,00104.33452825,W,1,05,2.87,+0.00,M,00.000,M,,*53
$GPGGA,000030.80,5333.86547184,N,00104.33452825,W,1,05,2.87,+0.00,M,00.000,M,,*5C
$GPGGA,000030.90,5333.86547184,N,00104.33452825,W,1,05,2.87,+0.00,M,00.000,M,,*5D
$GPGGA,000031.00,5333.86547184,N,00104.33452825,W,1,05,2.87,+0.00,M,00.000,M,,*55
$GPGGA,000031.10,5333.86547184,N,00104.33452825,W,1,05,2.87,+0.00,M,00.000,M,,*54
$GPGGA,000031.20,5333.86547184,N,00104.33452825,W,1,05,2.87,+0.00,M,00.000,M,,*57
$GPGGA,000031.30,5333.86547184,N,00104.33452825,W,1,05,2.87,+0.00,M,00.000,M,,*56
$GPGGA,000031.40,5333.86547184,N,00104.33452825,W,1,05,2.87,+0.00,M,00.000,M,,*51
$GPGGA,000031.50,5333.86547184,N,00104.33452825,W,1,05,2.87,+0.00,M,00.000,M,,*50
$GPGGA,000031.60,5333.86547184,N,00104.33452825,W,1,05,2.87,+0.00,M,00.000,M,,*53
$GPGGA,000031.70,5333.86547184,N,00104.33452825,W,1,05,2.87,+0.00,M,00.000,M,,*52
$GPGGA,000031.80,5333.86547184,N,00104.33452825,W,1,05,2.87,+0.00,M,00.000,M,,*5D
$GPGGA,000031.90,5333.86547184,N,00104.33452825,W,1,05,2.87,+0.00,M,00.000,M,,*5C
$GPGGA,000032.00,5333.86547184,N,00104.33452825,W,1,05,2.87,+0.00,M,00.000,M,,*56
$GPGGA,000032.10,5333.86547184,N,00104.33452825,W,1,05,2.87,+0.00,M,00.000,M,,*57
$GPGGA,000032.20,5333.86547184,N,00104.33452825,W,1,05,2.87,+0.00,M,00.000,M,,*54
$GPGGA,000032.30,5333.86547184,N,00104.33452825,W,1,05,2.87,+0.00,M,00.000,M,,*55
$GPGGA,000032.40,5333.86547184,N,00104.33452825,W,1,05,2.87,+0.00,M,00.000,M,,*52
$GPGGA,000032.50,5333.86547184,N,00104.33452825,W,1,05,2.87,+0.00,M,00.000,M,,*53
$GPGGA,000032.60,5333.86547184,N,00104.33452825,W,1,05,2.87,+0.00,M,00.000,M,,*50
$GPGGA,000032.70,5333.86547184,N,00104.33452825,W,1,05,2.87,+0.00,M,00.000,M,,*51
$GPGGA,000032.80,5333.86547184,N,00104.33452825,W,1,05,2.87,+0.00,M,00.000,M,,*5E
$GPGGA,000032.90,5333.86547184,N,00104.33452825,W,1,05,2.87,+0.00,M,00.000,M,,*5F
$GPGGA,000033.00,5333.86547184,N,00104.33452825,W,1,05,2.87,+0.00,M,00.000,M,,*57
$GPGGA,000033.10,5333.86547184,N,00104.33452825,W,1,05,2.87,+0.00,M,00.000,M,,*56
$GPGGA,000033.20,5333.86547184,N,00104.33452825,W,1,05,2.87,+0.00,M,00.000,M,,*55
$GPGGA,000033.30,5333.86547184,N,00104.33452825,W,1,05,2.87,+0.00,M,00.000,M,,*54
$GPGGA,000033.40,5333.86547184,N,00104.33452825,W,1,05,2.87,+0.00,M,00.000,M,,*53
$GPGGA,000033.50,5333.86547184,N,00104.33452825,W,1,05,2.87,+0.00,M,00.000,M,,*52
$GPGGA,000033.60,5333.86547184,N,00104.33452825,W,1,05,2.87,+0.00,M,00.000,M,,*51
$GPGGA,000033.70,5333.86547184,N,00104.33452825,W,1,05,2.87,+0.00,M,00.000,M,,*50
$GPGGA,000033.80,5333.86547184,N,00104.33452825,W,1,05,2.87,+0.00,M,00.000,M,,*5F
$GPGGA,000033.90,5333.86547184,N,00104.33452825,W,1,05,2.87,+0.00,M,00.000,M,,*5E
$GPGGA,000034.00,5333.86547184,N,00104.33452825,W,1,05,2.87,+0.00,M,00.000,M,,*50
$GPGGA,000034.10,5333.86547184,N,00104.33452825,W,1,05,2.87,+0.00,M,00.000,M,,*51
$GPGGA,000034.20,5333.86547184,N,00104.33452825,W,1,05,2.87,+0.00,M,00.000,M,,*52
$GPGGA,000034.30,5333.86547184,N,00104.33452825,W,1,05,2.87,+0.00,M,00.000,M,,*53
$GPGGA,000034.40,5333.86547184,N,00104.33452825,W,1,05,2.87,+0.00,M,00.000,M,,*54
$GPGGA,000034.50,5333.86547184,N,00104.33452825,W,1,05,2.87,+0.00,M,00.000,M,,*55
$GPGGA,000034.60,5333.86547184,N,00104.33452825,W,1,05,2.87,+0.00,M,00.000,M,,*56
$GPGGA,000034.70,5333.86547184,N,00104.33452825,W,1,05,2.87,+0.00,M,00.000,M,,*57
$GPGGA,000034.80,5333.86547184,N,00104.33452825,W,1,05,2.87,+0.00,M,00.000,M,,*58
$GPGGA,000034.90,5333.86547184,N,00104.33452825,W,1,05,2.87,+0.00,M,00.000,M,,*59
$GPGGA,000035.00,5333.86547184,N,00104.33452825,W,1,05,2.87,+0.00,M,00.000,M,,*51
$GPGGA,000035.10,5333.86547184,N,00104.33452825,W,1,05,2.87,+0.00,M,00.000,M,,*50
$GPGGA,000035.20,5333.86547184,N,00104.33452825,W,1,05,2.87,+0.00,M,00.000,M,,*53
$GPGGA,000035.30,5333.86547184,N,00104.33452825,W,1,05,2.87,+0.00,M,00.000,M,,*52
$GPGGA,000035.40,5333.86547184,N,00104.33452825,W,1,05,2.87,+0.00,M,00.000,M,,*55
$GPGGA,000035.50,5333.86547184,N,00104.33452825,W,1,05,2.87,+0.00,M,00.000,M,,*54
$GPGGA,000035.60,5333.86547184,N,00104.33452825,W,1,05,2.87,+0.00,M,00.000,M,,*57
$GPGGA,000035.70,5333.86547184,N,00104.33452825,W,1,05,2.87,+0.00,M,00.000,M,,*56
$GPGGA,000035.80,5333.86547184,N,00104.33452825,W,1,05,2.87,+0.00,M,00.000,M,,*59
$GPGGA,000035.90,5333.86547184,N,00104.33452825,W,1,05,2.87,+0.00,M,00.000,M,,*58
$GPGGA,000036.00,5333.86547184,N,00104.33452825,W,1,05,2.87,+0.00,M,00.000,M,,*52
$GPGGA,000036.10,5333.86547184,N,00104.33452825,W,1,05,2.87,+0.00,M,00.000,M,,*53
$GPGGA,000036.20,5333.86547184,N,00104.33452825,W,1,05,2.87,+0.00,M,00.000,M,,*50
$GPGGA,000036.30,5333.86547184,N,00104.33452825,W,1,05,2.87,+0.00,M,00.000,M,,*51
$GPGGA,000036.40,5333.86547184,N,00104.33452825,W,1,05,2.87,+0.00,M,00.000,M,,*56
$GPGGA,000036.50,5333.86547184,N,00104.33452825,W,1,05,2.87,+0.00,M,00.000,M,,*57
$GPGGA,000036.60,5333.86547184,N,00104.33452825,W,1,05,2.87,+0.00,M,00.000,M,,*54
$GPGGA,000036.70,5333.86547184,N,00104.33452825,W,1,05,2.87,+0.00,M,00.000,M,,*55
$GPGGA,000036.80,5333.86547184,N,00104.33452825,W,1,05,2.87,+0.00,M,00.000,M,,*5A
$GPGGA,000036.90,5333.86547184,N,00104.33452825,W,1,05,2.87,+0.00,M,00.000,M,,*5B
$GPGGA,000037.00,5333.86547184,N,00104.33452825,W,1,05,2.87,+0.00,M,00.000,M,,*53
$GPGGA,000037.10,5333.86547184,N,00104.33452825,W,1,05,2.87,+0.00,M,00.000,M,,*52
$GPGGA,000037.20,5333.86547184,N,00104.33452825,W,1,05,2.87,+0.00,M,00.000,M,,*51
$GPGGA,000037.30,5333.86547184,N,00104.33452825,W,1,05,2.87,+0.00,M,00.000,M,,*50
$GPGGA,000037.40,5333.86547184,N,00104.33452825,W,1,05,2.87,+0.00,M,00.000,M,,*57
$GPGGA,000037.50,5333.86547184,N,00104.33452825,W,1,05,2.87,+0.00,M,00.000,M,,*56
$GPGGA,000037.60,5333.86547184,N,00104.33452825,W,1,05,2.87,+0.00,M,00.000,M,,*55
$GPGGA,000037.70,5333.86547184,N,00104.33452825,W,1,05,2.87,+0.00,M,00.000,M,,*54
$GPGGA,000037.80,5333.86547184,N,00104.33452825,W,1,05,2.87,+0.00,M,00.000,M,,*5B
$GPGGA,000037.90,5333.86547184,N,00104.33452825,W,1,05,2.87,+0.00,M,00.000,M,,*5A
$GPGGA,000038.00,5333.86547184,N,00104.33452825,W,1,05,2.87,+0.00,M,00.000,M,,*5C
$GPGGA,000038.10,5333.86547184,N,00104.33452825,W,1,05,2.87,+0.00,M,00.000,M,,*5D
$GPGGA,000038.20,5333.86547184,N,00104.33452825,W,1,05,2.87,+0.00,M,00.000,M,,*5E
$GPGGA,000038.30,5333.86547184,N,00104.33452825,W,1,05,2.87,+0.00,M,00.000,M,,*5F
$GPGGA,000038.40,5333.86547184,N,00104.33452825,W,1,05,2.87,+0.00,M,00.000,M,,*58
$GPGGA,000038.50,5333.86547184,N,00104.33452825,W,1,05,2.87,+0.00,M,00.000,M,,*59
$GPGGA,000038.60,5333.86547184,N,00104.33452825,W,1,05,2.87,+0.00,M,00.000,M,,*5A
$GPGGA,000038.70,5333.86547184,N,00104.33452825,W,1,05,2.87,+0.00,M,00.000,M,,*5B
$GPGGA,000038.80,5333.86547184,N,00104.33452825,W,1,05,2.87,+0.00,M,00.000,M,,*54
$GPGGA,000038.90,5333.86547184,N,00104.33452825,W,1,05,2.87,+0.00,M,00.000,M,,*55
$GPGGA,000039.00,5333.86547184,N,00104.33452825,W,1,05,2.87,+0.00,M,00.000,M,,*5D
$GPGGA,000039.10,5333.86547184,N,00104.33452825,W,1,05,2.87,+0.00,M,00.000,M,,*5C
$GPGGA,000039.20,5333.86547184,N,00104.33452825,W,1,05,2.87,+0.00,M,00.000,M,,*5F
$GPGGA,000039.30,5333.86547184,N,00104.33452825,W,1,05,2.87,+0.00,M,00.000,M,,*5E
$GPGGA,000039.40,5333.86547184,N,00104.33452825,W,1,05,2.87,+0.00,M,00.000,M,,*59
$GPGGA,000039.50,5333.86547184,N,00104.33452825,W,1,05,2.87,+0.00,M,00.000,M,,*58
$GPGGA,000039.60,5333.86547184,N,00104.33452825,W,1,05,2.87,+0.00,M,00.000,M,,*5B
$GPGGA,000039.70,5333.86547184,N,00104.33452825,W,1,05,2.87,+0.00,M,00.000,M,,*5A
$GPGGA,000039.80,5333.86547184,N,00104.33452825,W,1,05,2.87,+0.00,M,00.000,M,,*55
$GPGGA,000039.90,5333.86547184,N,00104.33452825,W,1,05,2.87,+0.00,M,00.000,M,,*54
$GPGGA,000040.00,5333.86547184,N,00104.33452825,W,1,05,2.87,+0.00,M,00.000,M,,*53
$GPGGA,000040.10,5333.86547184,N,00104.33452825,W,1,05,2.87,+0.00,M,00.000,M,,*52
$GPGGA,000040.20,5333.86547184,N,00104.33452825,W,1,05,2.87,+0.00,M,00.000,M,,*51
$GPGGA,000040.30,5333.86547184,N,00104.33452825,W,1,05,2.87,+0.00,M,00.000,M,,*50
$GPGGA,000040.40,5333.86547184,N,00104.33452825,W,1,05,2.87,+0.00,M,00.000,M,,*57
$GPGGA,000040.50,5333.86547184,N,00104.33452825,W,1,05,2.87,+0.00,M,00.000,M,,*56
$GPGGA,000040.60,5333.86547184,N,00104.33452825,W,1,05,2.87,+0.00,M,00.000,M,,*55
$GPGGA,000040.70,5333.86547184,N,00104.33452825,W,1,05,2.87,+0.00,M,00.000,M,,*54
$GPGGA,000040.80,5333.86547184,N,00104.33452825,W,1,05,2.87,+0.00,M,00.000,M,,*5B
$GPGGA,000040.90,5333.86547184,N,00104.33452825,W,1,05,2.87,+0.00,M,00.000,M,,*5A
$GPGGA,000041.00,5333.86547184,N,00104.33452825,W,1,05,2.87,+0.00,M,00.000,M,,*52
$GPGGA,000041.10,5333.86547184,N,00104.33452825,W,1,05,2.87,+0.00,M,00.000,M,,*53
$GPGGA,000041.20,5333.86547184,N,00104.33452825,W,1,05,2.87,+0.00,M,00.000,M,,*50
$GPGGA,000041.30,5333.86547184,N,00104.33452825,W,1,05,2.87,+0.00,M,00.000,M,,*51
$GPGGA,000041.40,5333.86547184,N,00104.33452825,W,1,05,2.87,+0.00,M,00.000,M,,*56
$GPGGA,000041.50,5333.86547184,N,00104.33452825,W,1,05,2.87,+0.00,M,00.000,M,,*57
$GPGGA,000041.60,5333.86547184,N,00104.33452825,W,1,05,2.87,+0.00,M,00.000,M,,*54
$GPGGA,000041.70,5333.86547184,N,00104.33452825,W,1,05,2.87,+0.00,M,00.000,M,,*55
$GPGGA,000041.80,5333.86547184,N,00104.33452825,W,1,05,2.87,+0.00,M,00.000,M,,*5A
$GPGGA,000041.90,5333.86547184,N,00104.33452825,W,1,05,2.87,+0.00,M,00.000,M,,*5B
$GPGGA,000042.00,5333.86547184,N,00104.33452825,W,1,05,2.87,+0.00,M,00.000,M,,*51
$GPGGA,000042.10,5333.86547184,N,00104.33452825,W,1,05,2.87,+0.00,M,00.000,M,,*50
$GPGGA,000042.20,5333.86547184,N,00104.33452825,W,1,05,2.87,+0.00,M,00.000,M,,*53
$GPGGA,000042.30,5333.86547184,N,00104.33452825,W,1,05,2.87,+0.00,M,00.000,M,,*52
$GPGGA,000042.40,5333.86547184,N,00104.33452825,W,1,05,2.87,+0.00,M,00.000,M,,*55
$GPGGA,000042.50,5333.86547184,N,00104.33452825,W,1,05,2.87,+0.00,M,00.000,M,,*54
$GPGGA,000042.60,5333.86547184,N,00104.33452825,W,1,05,2.87,+0.00,M,00.000,M,,*57
$GPGGA,000042.70,5333.86547184,N,00104.33452825,W,1,05,2.87,+0.00,M,00.000,M,,*56
$GPGGA,000042.80,5333.86547184,N,00104.33452825,W,1,05,2.87,+0.00,M,00.000,M,,*59
$GPGGA,000042.90,5333.86547184,N,00104.33452825,W,1,05,2.87,+0.00,M,00.000,M,,*58
$GPGGA,000043.00,5333.86547184,N,00104.33452825,W,1,05,2.87,+0.00,M,00.000,M,,*50
$GPGGA,000043.10,5333.86547184,N,00104.33452825,W,1,05,2.87,+0.00,M,00.000,M,,*51
$GPGGA,000043.20,5333.86547184,N,00104.33452825,W,1,05,2.87,+0.00,M,00.000,M,,*52
$GPGGA,000043.30,5333.86547184,N,00104.33452825,W,1,05,2.87,+0.00,M,00.000,M,,*53
$GPGGA,000043.40,5333.86547184,N,00104.33452825,W,1,05,2.87,+0.00,M,00.000,M,,*54
$GPGGA,000043.50,5333.86547184,N,00104.33452825,W,1,05,2.87,+0.00,M,00.000,M,,*55
$GPGGA,000043.60,5333.86547184,N,00104.33452825,W,1,05,2.87,+0.00,M,00.000,M,,*56
$GPGGA,000043.70,5333.86547184,N,00104.33452825,W,1,05,2.87,+0.00,M,00.000,M,,*57
$GPGGA,000043.80,5333.86547184,N,00104.33452825,W,1,05,2.87,+0.00,M,00.000,M,,*58
$GPGGA,000043.90,5333.86547184,N,00104.33452825,W,1,05,2.87,+0.00,M,00.000,M,,*59
$GPGGA,000044.00,5333.86547184,N,00104.33452825,W,1,05,2.87,+0.00,M,00.000,M,,*57
$GPGGA,000044.10,5333.86547184,N,00104.33452825,W,1,05,2.87,+0.00,M,00.000,M,,*56
$GPGGA,000044.20,5333.86547184,N,00104.33452825,W,1,05,2.87,+0.00,M,00.000,M,,*55
$GPGGA,000044.30,5333.86547184,N,00104.33452825,W,1,05,2.87,+0.00,M,00.000,M,,*54
$GPGGA,000044.40,5333.86547184,N,00104.33452825,W,1,05,2.87,+0.00,M,00.000,M,,*53
$GPGGA,000044.50,5333.86547184,N,00104.33452825,W,1,05,2.87,+0.00,M,00.000,M,,*52
$GPGGA,000044.60,5333.86547184,N,00104.33452825,W,1,05,2.87,+0.00,M,00.000,M,,*51
$GPGGA,000044.70,5333.86547184,N,00104.33452825,W,1,05,2.87,+0.00,M,00.000,M,,*50
$GPGGA,000044.80,5333.86547184,N,00104.33452825,W,1,05,2.87,+0.00,M,00.000,M,,*5F
$GPGGA,000044.90,5333.86547184,N,00104.33452825,W,1,05,2.87,+0.00,M,00.000,M,,*5E
$GPGGA,000045.00,5333.86547184,N,00104.33452825,W,1,05,2.87,+0.00,M,00.000,M,,*56
$GPGGA,000045.10,5333.86547184,N,00104.33452825,W,1,05,2.87,+0.00,M,00.000,M,,*57
$GPGGA,000045.20,5333.86547184,N,00104.33452825,W,1,05,2.87,+0.00,M,00.000,M,,*54
$GPGGA,000045.30,5333.86547184,N,00104.33452825,W,1,05,2.87,+0.00,M,00.000,M,,*55
$GPGGA,000045.40,5333.86547184,N,00104.33452825,W,1,05,2.87,+0.00,M,00.000,M,,*52
$GPGGA,000045.50,5333.86547184,N,00104.33452825,W,1,05,2.87,+0.00,M,00.000,M,,*53
$GPGGA,000045.60,5333.86547184,N,00104.33452825,W,1,05,2.87,+0.00,M,00.000,M,,*50
$GPGGA,000045.70,5333.86547184,N,00104.33452825,W,1,05,2.87,+0.00,M,00.000,M,,*51
$GPGGA,000045.80,5333.86547184,N,00104.33452825,W,1,05,2.87,+0.00,M,00.000,M,,*5E
$GPGGA,000045.90,5333.86547184,N,00104.33452825,W,1,05,2.87,+0.00,M,00.000,M,,*5F
$GPGGA,000046.00,5333.86547184,N,00104.33452825,W,1,05,2.87,+0.00,M,00.000,M,,*55
$GPGGA,000046.10,5333.86547184,N,00104.33452825,W,1,05,2.87,+0.00,M,00.000,M,,*54
$GPGGA,000046.20,5333.86547184,N,00104.33452825,W,1,05,2.87,+0.00,M,00.000,M,,*57
$GPGGA,000046.30,5333.86547184,N,00104.33452825,W,1,05,2.87,+0.00,M,00.000,M,,*56
$GPGGA,000046.40,5333.86547184,N,00104.33452825,W,1,05,2.87,+0.00,M,00.000,M,,*51
$GPGGA,000046.50,5333.86547184,N,00104.33452825,W,1,05,2.87,+0.00,M,00.000,M,,*50
$GPGGA,000046.60,5333.86547184,N,00104.33452825,W,1,05,2.87,+0.00,M,00.000,M,,*53
$GPGGA,000046.70,5333.86547184,N,00104.33452825,W,1,05,2.87,+0.00,M,00.000,M,,*52
$GPGGA,000046.80,5333.86547184,N,00104.33452825,W,1,05,2.87,+0.00,M,00.000,M,,*5D
$GPGGA,000046.90,5333.86547184,N,00104.33452825,W,1,05,2.87,+0.00,M,00.000,M,,*5C
$GPGGA,000047.00,5333.86547184,N,00104.33452825,W,1,05,2.87,+0.00,M,00.000,M,,*54
$GPGGA,000047.10,5333.86547184,N,00104.33452825,W,1,05,2.87,+0.00,M,00.000,M,,*55
$GPGGA,000047.20,5333.86547184,N,00104.33452825,W,1,05,2.87,+0.00,M,00.000,M,,*56
$GPGGA,000047.30,5333.86547184,N,00104.33452825,W,1,05,2.87,+0.00,M,00.000,M,,*57
$GPGGA,000047.40,5333.86547184,N,00104.33452825,W,1,05,2.87,+0.00,M,00.000,M,,*50
$GPGGA,000047.50,5333.86547184,N,00104.33452825,W,1,05,2.87,+0.00,M,00.000,M,,*51
$GPGGA,000047.60,5333.86547184,N,00104.33452825,W,1,05,2.87,+0.00,M,00.000,M,,*52
$GPGGA,000047.70,5333.86547184,N,00104.33452825,W,1,05,2.87,+0.00,M,00.000,M,,*53
$GPGGA,000047.80,5333.86547184,N,00104.33452825,W,1,05,2.87,+0.00,M,00.000,M,,*5C
$GPGGA,000047.90,5333.86547184,N,00104.33452825,W,1,05,2.87,+0.00,M,00.000,M,,*5D
$GPGGA,000048.00,5333.86547184,N,00104.33452825,W,1,05,2.87,+0.00,M,00.000,M,,*5B
$GPGGA,000048.10,5333.86547184,N,00104.33452825,W,1,05,2.87,+0.00,M,00.000,M,,*5A
$GPGGA,000048.20,5333.86547184,N,00104.33452825,W,1,05,2.87,+0.00,M,00.000,M,,*59
$GPGGA,000048.30,5333.86547184,N,00104.33452825,W,1,05,2.87,+0.00,M,00.000,M,,*58
$GPGGA,000048.40,5333.86547184,N,00104.33452825,W,1,05,2.87,+0.00,M,00.000,M,,*5F
$GPGGA,000048.50,5333.86547184,N,00104.33452825,W,1,05,2.87,+0.00,M,00.000,M,,*5E
$GPGGA,000048.60,5333.86547184,N,00104.33452825,W,1,05,2.87,+0.00,M,00.000,M,,*5D
$GPGGA,000048.70,5333.86547184,N,00104.33452825,W,1,05,2.87,+0.00,M,00.000,M,,*5C
$GPGGA,000048.80,5333.86547184,N,00104.33452825,W,1,05,2.87,+0.00,M,00.000,M,,*53
$GPGGA,000048.90,5333.86547184,N,00104.33452825,W,1,05,2.87,+0.00,M,00.000,M,,*52
$GPGGA,000049.00,5333.86547184,N,00104.33452825,W,1,05,2.87,+0.00,M,00.000,M,,*5A
$GPGGA,000049.10,5333.86547184,N,00104.33452825,W,1,05,2.87,+0.00,M,00.000,M,,*5B
$GPGGA,000049.20,5333.86547184,N,00104.33452825,W,1,05,2.87,+0.00,M,00.000,M,,*58
$GPGGA,000049.30,5333.86547184,N,00104.33452825,W,1,05,2.87,+0.00,M,00.000,M,,*59
$GPGGA,000049.40,5333.86547184,N,00104.33452825,W,1,05,2.87,+0.00,M,00.000,M,,*5E
$GPGGA,000049.50,5333.86547184,N,00104.33452825,W,1,05,2.87,+0.00,M,00.000,M,,*5F
$GPGGA,000049.60,5333.86547184,N,00104.33452825,W,1,05,2.87,+0.00,M,00.000,M,,*5C
$GPGGA,000049.70,5333.86547184,N,00104.33452825,W,1,05,2.87,+0.00,M,00.000,M,,*5D
$GPGGA,000049.80,5333.86547184,N,00104.33452825,W,1,05,2.87,+0.00,M,00.000,M,,*52
$GPGGA,000049.90,5333.86547184,N,00104.33452825,W,1,05,2.87,+0.00,M,00.000,M,,*53
$GPGGA,000050.00,5333.86547184,N,00104.33452825,W,1,05,2.87,+0.00,M,00.000,M,,*52
$GPGGA,000050.10,5333.86547184,N,00104.33452825,W,1,05,2.87,+0.00,M,00.000,M,,*53
$GPGGA,000050.20,5333.86547184,N,00104.33452825,W,1,05,2.87,+0.00,M,00.000,M,,*50
$GPGGA,000050.30,5333.86547184,N,00104.33452825,W,1,05,2.87,+0.00,M,00.000,M,,*51
$GPGGA,000050.40,5333.86547184,N,00104.33452825,W,1,05,2.87,+0.00,M,00.000,M,,*56
$GPGGA,000050.50,5333.86547184,N,00104.33452825,W,1,05,2.87,+0.00,M,00.000,M,,*57
$GPGGA,000050.60,5333.86547184,N,00104.33452825,W,1,05,2.87,+0.00,M,00.000,M,,*54
$GPGGA,000050.70,5333.86547184,N,00104.33452825,W,1,05,2.87,+0.00,M,00.000,M,,*55
$GPGGA,000050.80,5333.86547184,N,00104.33452825,W,1,05,2.87,+0.00,M,00.000,M,,*5A
$GPGGA,000050.90,5333.86547184,N,00104.33452825,W,1,05,2.87,+0.00,M,00.000,M,,*5B
$GPGGA,000051.00,5333.86547184,N,00104.33452825,W,1,05,2.87,+0.00,M,00.000,M,,*53
$GPGGA,000051.10,5333.86547184,N,00104.33452825,W,1,05,2.87,+0.00,M,00.000,M,,*52
$GPGGA,000051.20,5333.86547184,N,00104.33452825,W,1,05,2.87,+0.00,M,00.000,M,,*51
$GPGGA,000051.30,5333.86547184,N,00104.33452825,W,1,05,2.87,+0.00,M,00.000,M,,*50
$GPGGA,000051.40,5333.86547184,N,00104.33452825,W,1,05,2.87,+0.00,M,00.000,M,,*57
$GPGGA,000051.50,5333.86547184,N,00104.33452825,W,1,05,2.87,+0.00,M,00.000,M,,*56
$GPGGA,000051.60,5333.86547184,N,00104.33452825,W,1,05,2.87,+0.00,M,00.000,M,,*55
$GPGGA,000051.70,5333.86547184,N,00104.33452825,W,1,05,2.87,+0.00,M,00.000,M,,*54
$GPGGA,000051.80,5333.86547184,N,00104.33452825,W,1,05,2.87,+0.00,M,00.000,M,,*5B
$GPGGA,000051.90,5333.86547184,N,00104.33452825,W,1,05,2.87,+0.00,M,00.000,M,,*5A
$GPGGA,000052.00,5333.86547184,N,00104.33452825,W,1,05,2.87,+0.00,M,00.000,M,,*50
$GPGGA,000052.10,5333.86547184,N,00104.33452825,W,1,05,2.87,+0.00,M,00.000,M,,*51
$GPGGA,000052.20,5333.86547184,N,00104.33452825,W,1,05,2.87,+0.00,M,00.000,M,,*52
$GPGGA,000052.30,5333.86547184,N,00104.33452825,W,1,05,2.87,+0.00,M,00.000,M,,*53
$GPGGA,000052.40,5333.86547184,N,00104.33452825,W,1,05,2.87,+0.00,M,00.000,M,,*54
$GPGGA,000052.50,5333.86547184,N,00104.33452825,W,1,05,2.87,+0.00,M,00.000,M,,*55
$GPGGA,000052.60,5333.86547184,N,00104.33452825,W,1,05,2.87,+0.00,M,00.000,M,,*56
$GPGGA,000052.70,5333.86547184,N,00104.33452825,W,1,05,2.87,+0.00,M,00.000,M,,*57
$GPGGA,000052.80,5333.86547184,N,00104.33452825,W,1,05,2.87,+0.00,M,00.000,M,,*58
$GPGGA,000052.90,5333.86547184,N,00104.33452825,W,1,05,2.87,+0.00,M,00.000,M,,*59
$GPGGA,000053.00,5333.86547184,N,00104.33452825,W,1,05,2.87,+0.00,M,00.000,M,,*51
$GPGGA,000053.10,5333.86547184,N,00104.33452825,W,1,05,2.87,+0.00,M,00.000,M,,*50
$GPGGA,000053.20,5333.86547184,N,00104.33452825,W,1,05,2.87,+0.00,M,00.000,M,,*53
$GPGGA,000053.30,5333.86547184,N,00104.33452825,W,1,05,2.87,+0.00,M,00.000,M,,*52
$GPGGA,000053.40,5333.86547184,N,00104.33452825,W,1,05,2.87,+0.00,M,00.000,M,,*55
$GPGGA,000053.50,5333.86547184,N,00104.33452825,W,1,05,2.87,+0.00,M,00.000,M,,*54
$GPGGA,000053.60,5333.86547184,N,00104.33452825,W,1,05,2.87,+0.00,M,00.000,M,,*57
$GPGGA,000053.70,5333.86547184,N,00104.33452825,W,1,05,2.87,+0.00,M,00.000,M,,*56
$GPGGA,000053.80,5333.86547184,N,00104.33452825,W,1,05,2.87,+0.00,M,00.000,M,,*59
$GPGGA,000053.90,5333.86547184,N,00104.33452825,W,1,05,2.87,+0.00,M,00.000,M,,*58
$GPGGA,000054.00,5333.86547184,N,00104.33452825,W,1,05,2.87,+0.00,M,00.000,M,,*56
$GPGGA,000054.10,5333.86547184,N,00104.33452825,W,1,05,2.87,+0.00,M,00.000,M,,*57
$GPGGA,000054.20,5333.86547184,N,00104.33452825,W,1,05,2.87,+0.00,M,00.000,M,,*54
$GPGGA,000054.30,5333.86547184,N,00104.33452825,W,1,05,2.87,+0.00,M,00.000,M,,*55
$GPGGA,000054.40,5333.86547184,N,00104.33452825,W,1,05,2.87,+0.00,M,00.000,M,,*52
$GPGGA,000054.50,5333.86547184,N,00104.33452825,W,1,05,2.87,+0.00,M,00.000,M,,*53
$GPGGA,000054.60,5333.86547184,N,00104.33452825,W,1,05,2.87,+0.00,M,00.000,M,,*50
$GPGGA,000054.70,5333.86547184,N,00104.33452825,W,1,05,2.87,+0.00,M,00.000,M,,*51
$GPGGA,000054.80,5333.86547184,N,00104.33452825,W,1,05,2.87,+0.00,M,00.000,M,,*5E
$GPGGA,000054.90,5333.86547184,N,00104.33452825,W,1,05,2.87,+0.00,M,00.000,M,,*5F
$GPGGA,000055.00,5333.86547184,N,00104.33452825,W,1,05,2.87,+0.00,M,00.000,M,,*57
$GPGGA,000055.10,5333.86547184,N,00104.33452825,W,1,05,2.87,+0.00,M,00.000,M,,*56
$GPGGA,000055.20,5333.86547184,N,00104.33452825,W,1,05,2.87,+0.00,M,00.000,M,,*55
$GPGGA,000055.30,5333.86547184,N,00104.33452825,W,1,05,2.87,+0.00,M,00.000,M,,*54
$GPGGA,000055.40,5333.86547184,N,00104.33452825,W,1,05,2.87,+0.00,M,00.000,M,,*53
$GPGGA,000055.50,5333.86547184,N,00104.33452825,W,1,05,2.87,+0.00,M,00.000,M,,*52
$GPGGA,000055.60,5333.86547184,N,00104.33452825,W,1,05,2.87,+0.00,M,00.000,M,,*51
$GPGGA,000055.70,5333.86547184,N,00104.33452825,W,1,05,2.87,+0.00,M,00.000,M,,*50
$GPGGA,000055.80,5333.86547184,N,00104.33452825,W,1,05,2.87,+0.00,M,00.000,M,,*5F
$GPGGA,000055.90,5333.86547184,N,00104.33452825,W,1,05,2.87,+0.00,M,00.000,M,,*5E
$GPGGA,000056.00,5333.86547184,N,00104.33452825,W,1,05,2.87,+0.00,M,00.000,M,,*54
$GPGGA,000056.10,5333.86547184,N,00104.33452825,W,1,05,2.87,+0.00,M,00.000,M,,*55
$GPGGA,000056.20,5333.86547184,N,00104.33452825,W,1,05,2.87,+0.00,M,00.000,M,,*56
$GPGGA,000056.30,5333.86547184,N,00104.33452825,W,1,05,2.87,+0.00,M,00.000,M,,*57
$GPGGA,000056.40,5333.86547184,N,00104.33452825,W,1,05,2.87,+0.00,M,00.000,M,,*50
$GPGGA,000056.50,5333.86547184,N,00104.33452825,W,1,05,2.87,+0.00,M,00.000,M,,*51
$GPGGA,000056.60,5333.86547184,N,00104.33452825,W,1,05,2.87,+0.00,M,00.000,M,,*52
$GPGGA,000056.70,5333.86547184,N,00104.33452825,W,1,05,2.87,+0.00,M,00.000,M,,*53
$GPGGA,000056.80,5333.86547184,N,00104.33452825,W,1,05,2.87,+0.00,M,00.000,M,,*5C
$GPGGA,000056.90,5333.86547184,N,00104.33452825,W,1,05,2.87,+0.00,M,00.000,M,,*5D
$GPGGA,000057.00,5333.86547184,N,00104.33452825,W,1,05,2.87,+0.00,M,00.000,M,,*55
$GPGGA,000057.10,5333.86547184,N,00104.33452825,W,1,05,2.87,+0.00,M,00.000,M,,*54
$GPGGA,000057.20,5333.86547184,N,00104.33452825,W,1,05,2.87,+0.00,M,00.000,M,,*57
$GPGGA,000057.30,5333.86547184,N,00104.33452825,W,1,05,2.87,+0.00,M,00.000,M,,*56
$GPGGA,000057.40,5333.86547184,N,00104.33452825,W,1,05,2.87,+0.00,M,00.000,M,,*51
$GPGGA,000057.50,5333.86547184,N,00104.33452825,W,1,05,2.87,+0.00,M,00.000,M,,*50
$GPGGA,000057.60,5333.86547184,N,00104.33452825,W,1,05,2.87,+0.00,M,00.000,M,,*53
$GPGGA,000057.70,5333.86547184,N,00104.33452825,W,1,05,2.87,+0.00,M,00.000,M,,*52
$GPGGA,000057.80,5333.86547184,N,00104.33452825,W,1,05,2.87,+0.00,M,00.000,M,,*5D
$GPGGA,000057.90,5333.86547184,N,00104.33452825,W,1,05,2.87,+0.00,M,00.000,M,,*5C
$GPGGA,000058.00,5333.86547184,N,00104.33452825,W,1,05,2.87,+0.00,M,00.000,M,,*5A
$GPGGA,000058.10,5333.86547184,N,00104.33452825,W,1,05,2.87,+0.00,M,00.000,M,,*5B
$GPGGA,000058.20,5333.86547184,N,00104.33452825,W,1,05,2.87,+0.00,M,00.000,M,,*58
$GPGGA,000058.30,5333.86547184,N,00104.33452825,W,1,05,2.87,+0.00,M,00.000,M,,*59
$GPGGA,000058.40,5333.86547184,N,00104.33452825,W,1,05,2.87,+0.00,M,00.000,M,,*5E
$GPGGA,000058.50,5333.86547184,N,00104.33452825,W,1,05,2.87,+0.00,M,00.000,M,,*5F
$GPGGA,000058.60,5333.86547184,N,00104.33452825,W,1,05,2.87,+0.00,M,00.000,M,,*5C
$GPGGA,000058.70,5333.86547184,N,00104.33452825,W,1,05,2.87,+0.00,M,00.000,M,,*5D
$GPGGA,000058.80,5333.86547184,N,00104.33452825,W,1,05,2.87,+0.00,M,00.000,M,,*52
$GPGGA,000058.90,5333.86547184,N,00104.33452825,W,1,05,2.87,+0.00,M,00.000,M,,*53
$GPGGA,000059.00,5333.86547184,N,00104.33452825,W,1,05,2.87,+0.00,M,00.000,M,,*5B
$GPGGA,000059.10,5333.86547184,N,00104.33452825,W,1,05,2.87,+0.00,M,00.000,M,,*5A
$GPGGA,000059.20,5333.86547184,N,00104.33452825,W,1,05,2.87,+0.00,M,00.000,M,,*59
$GPGGA,000059.30,5333.86547184,N,00104.33452825,W,1,05,2.87,+0.00,M,00.000,M,,*58
$GPGGA,000059.40,5333.86547184,N,00104.33452825,W,1,05,2.87,+0.00,M,00.000,M,,*5F
$GPGGA,000059.50,5333.86547184,N,00104.33452825,W,1,05,2.87,+0.00,M,00.000,M,,*5E
$GPGGA,000059.60,5333.86547184,N,00104.33452825,W,1,05,2.87,+0.00,M,00.000,M,,*5D
$GPGGA,000059.70,5333.86547184,N,00104.33452825,W,1,05,2.87,+0.00,M,00.000,M,,*5C
$GPGGA,000059.80,5333.86547184,N,00104.33452825,W,1,05,2.87,+0.00,M,00.000,M,,*53
$GPGGA,000059.90,5333.86547184,N,00104.33452825,W,1,05,2.87,+0.00,M,00.000,M,,*52
$GPGGA,000100.00,5333.86547184,N,00104.33452825,W,1,05,2.87,+0.00,M,00.000,M,,*56
$GPGGA,000100.10,5333.86547184,N,00104.33452825,W,1,05,2.87,+0.00,M,00.000,M,,*57
$GPGGA,000100.20,5333.86547184,N,00104.33452825,W,1,05,2.87,+0.00,M,00.000,M,,*54
$GPGGA,000100.30,5333.86547184,N,00104.33452825,W,1,05,2.87,+0.00,M,00.000,M,,*55
$GPGGA,000100.40,5333.86547184,N,00104.33452825,W,1,05,2.87,+0.00,M,00.000,M,,*52
$GPGGA,000100.50,5333.86547184,N,00104.33452825,W,1,05,2.87,+0.00,M,00.000,M,,*53
$GPGGA,000100.60,5333.86547184,N,00104.33452825,W,1,05,2.87,+0.00,M,00.000,M,,*50
$GPGGA,000100.70,5333.86547184,N,00104.33452825,W,1,05,2.87,+0.00,M,00.000,M,,*51
$GPGGA,000100.80,5333.86547184,N,00104.33452825,W,1,05,2.87,+0.00,M,00.000,M,,*5E
$GPGGA,000100.90,5333.86547184,N,00104.33452825,W,1,05,2.87,+0.00,M,00.000,M,,*5F
$GPGGA,000101.00,5333.86547184,N,00104.33452825,W,1,05,2.87,+0.00,M,00.000,M,,*57
$GPGGA,000101.10,5333.86547184,N,00104.33452825,W,1,05,2.87,+0.00,M,00.000,M,,*56
$GPGGA,000101.20,5333.86547184,N,00104.33452825,W,1,05,2.87,+0.00,M,00.000,M,,*55
$GPGGA,000101.30,5333.86547184,N,00104.33452825,W,1,05,2.87,+0.00,M,00.000,M,,*54
$GPGGA,000101.40,5333.86547184,N,00104.33452825,W,1,05,2.87,+0.00,M,00.000,M,,*53
$GPGGA,000101.50,5333.86547184,N,00104.33452825,W,1,05,2.87,+0.00,M,00.000,M,,*52
$GPGGA,000101.60,5333.86547184,N,00104.33452825,W,1,05,2.87,+0.00,M,00.000,M,,*51
$GPGGA,000101.70,5333.86547184,N,00104.33452825,W,1,05,2.87,+0.00,M,00.000,M,,*50
$GPGGA,000101.80,5333.86547184,N,00104.33452825,W,1,05,2.87,+0.00,M,00.000,M,,*5F
$GPGGA,000101.90,5333.86547184,N,00104.33452825,W,1,05,2.87,+0.00,M,00.000,M,,*5E
$GPGGA,000102.00,5333.86547184,N,00104.33452825,W,1,05,2.87,+0.00,M,00.000,M,,*54
$GPGGA,000102.10,5333.86547184,N,00104.33452825,W,1,05,2.87,+0.00,M,00.000,M,,*55
$GPGGA,000102.20,5333.86547184,N,00104.33452825,W,1,05,2.87,+0.00,M,00.000,M,,*56
$GPGGA,000102.30,5333.86547184,N,00104.33452825,W,1,05,2.87,+0.00,M,00.000,M,,*57
$GPGGA,000102.40,5333.86547184,N,00104.33452825,W,1,05,2.87,+0.00,M,00.000,M,,*50
$GPGGA,000102.50,5333.86547184,N,00104.33452825,W,1,05,2.87,+0.00,M,00.000,M,,*51
$GPGGA,000102.60,5333.86547184,N,00104.33452825,W,1,05,2.87,+0.00,M,00.000,M,,*52
$GPGGA,000102.70,5333.86547184,N,00104.33452825,W,1,05,2.87,+0.00,M,00.000,M,,*53
$GPGGA,000102.80,5333.86547184,N,00104.33452825,W,1,05,2.87,+0.00,M,00.000,M,,*5C
$GPGGA,000102.90,5333.86547184,N,00104.33452825,W,1,05,2.87,+0.00,M,00.000,M,,*5D
$GPGGA,000103.00,5333.86547184,N,00104.33452825,W,1,05,2.87,+0.00,M,00.000,M,,*55
$GPGGA,000103.10,5333.86547184,N,00104.33452825,W,1,05,2.87,+0.00,M,00.000,M,,*54
$GPGGA,000103.20,5333.86547184,N,00104.33452825,W,1,05,2.87,+0.00,M,00.000,M,,*57
$GPGGA,000103.30,5333.86547184,N,00104.33452825,W,1,05,2.87,+0.00,M,00.000,M,,*56
$GPGGA,000103.40,5333.86547184,N,00104.33452825,W,1,05,2.87,+0.00,M,00.000,M,,*51
$GPGGA,000103.50,5333.86547184,N,00104.33452825,W,1,05,2.87,+0.00,M,00.000,M,,*50
$GPGGA,000103.60,5333.86547184,N,00104.33452825,W,1,05,2.87,+0.00,M,00.000,M,,*53
$GPGGA,000103.70,5333.86547184,N,00104.33452825,W,1,05,2.87,+0.00,M,00.000,M,,*52
$GPGGA,000103.80,5333.86547184,N,00104.33452825,W,1,05,2.87,+0.00,M,00.000,M,,*5D
$GPGGA,000103.90,5333.86547184,N,00104.33452825,W,1,05,2.87,+0.00,M,00.000,M,,*5C
$GPGGA,000104.00,5333.86547184,N,00104.33452825,W,1,05,2.87,+0.00,M,00.000,M,,*52
$GPGGA,000104.10,5333.86547184,N,00104.33452825,W,1,05,2.87,+0.00,M,00.000,M,,*53
$GPGGA,000104.20,5333.86547184,N,00104.33452825,W,1,05,2.87,+0.00,M,00.000,M,,*50
$GPGGA,000104.30,5333.86547184,N,00104.33452825,W,1,05,2.87,+0.00,M,00.000,M,,*51
$GPGGA,000104.40,5333.86547184,N,00104.33452825,W,1,05,2.87,+0.00,M,00.000,M,,*56
$GPGGA,000104.50,5333.86547184,N,00104.33452825,W,1,05,2.87,+0.00,M,00.000,M,,*57
$GPGGA,000104.60,5333.86547184,N,00104.33452825,W,1,05,2.87,+0.00,M,00.000,M,,*54
$GPGGA,000104.70,5333.86547184,N,00104.33452825,W,1,05,2.87,+0.00,M,00.000,M,,*55
$GPGGA,000104.80,5333.86547184,N,00104.33452825,W,1,05,2.87,+0.00,M,00.000,M,,*5A
$GPGGA,000104.90,5333.86547184,N,00104.33452825,W,1,05,2.87,+0.00,M,00.000,M,,*5B
$GPGGA,000105.00,5333.86547184,N,00104.33452825,W,1,05,2.87,+0.00,M,00.000,M,,*53
$GPGGA,000105.10,5333.86547184,N,00104.33452825,W,1,05,2.87,+0.00,M,00.000,M,,*52
$GPGGA,000105.20,5333.86547184,N,00104.33452825,W,1,05,2.87,+0.00,M,00.000,M,,*51
$GPGGA,000105.30,5333.86547184,N,00104.33452825,W,1,05,2.87,+0.00,M,00.000,M,,*50
$GPGGA,000105.40,5333.86547184,N,00104.33452825,W,1,05,2.87,+0.00,M,00.000,M,,*57
$GPGGA,000105.50,5333.86547184,N,00104.33452825,W,1,05,2.87,+0.00,M,00.000,M,,*56
$GPGGA,000105.60,5333.86547184,N,00104.33452825,W,1,05,2.87,+0.00,M,00.000,M,,*55
$GPGGA,000105.70,5333.86547184,N,00104.33452825,W,1,05,2.87,+0.00,M,00.000,M,,*54
$GPGGA,000105.80,5333.86547184,N,00104.33452825,W,1,05,2.87,+0.00,M,00.000,M,,*5B
$GPGGA,000105.90,5333.86547184,N,00104.33452825,W,1,05,2.87,+0.00,M,00.000,M,,*5A
$GPGGA,000106.00,5333.86547184,N,00104.33452825,W,1,05,2.87,+0.00,M,00.000,M,,*50
$GPGGA,000106.10,5333.86547184,N,00104.33452825,W,1,05,2.87,+0.00,M,00.000,M,,*51
$GPGGA,000106.20,5333.86547184,N,00104.33452825,W,1,05,2.87,+0.00,M,00.000,M,,*52
$GPGGA,000106.30,5333.86547184,N,00104.33452825,W,1,05,2.87,+0.00,M,00.000,M,,*53
$GPGGA,000106.40,5333.86547184,N,00104.33452825,W,1,05,2.87,+0.00,M,00.000,M,,*54
$GPGGA,000106.50,5333.86547184,N,00104.33452825,W,1,05,2.87,+0.00,M,00.000,M,,*55
$GPGGA,000106.60,5333.86547184,N,00104.33452825,W,1,05,2.87,+0.00,M,00.000,M,,*56
$GPGGA,000106.70,5333.86547184,N,00104.33452825,W,1,05,2.87,+0.00,M,00.000,M,,*57
$GPGGA,000106.80,5333.86547184,N,00104.33452825,W,1,05,2.87,+0.00,M,00.000,M,,*58
$GPGGA,000106.90,5333.86547184,N,00104.33452825,W,1,05,2.87,+0.00,M,00.000,M,,*59
$GPGGA,000107.00,5333.86547184,N,00104.33452825,W,1,05,2.87,+0.00,M,00.000,M,,*51
$GPGGA,000107.10,5333.86547184,N,00104.33452825,W,1,05,2.87,+0.00,M,00.000,M,,*50
$GPGGA,000107.20,5333.86547184,N,00104.33452825,W,1,05,2.87,+0.00,M,00.000,M,,*53
$GPGGA,000107.30,5333.86547184,N,00104.33452825,W,1,05,2.87,+0.00,M,00.000,M,,*52
$GPGGA,000107.40,5333.86547184,N,00104.33452825,W,1,05,2.87,+0.00,M,00.000,M,,*55
$GPGGA,000107.50,5333.86547184,N,00104.33452825,W,1,05,2.87,+0.00,M,00.000,M,,*54
$GPGGA,000107.60,5333.86547184,N,00104.33452825,W,1,05,2.87,+0.00,M,00.000,M,,*57
$GPGGA,000107.70,5333.86547184,N,00104.33452825,W,1,05,2.87,+0.00,M,00.000,M,,*56
$GPGGA,000107.80,5333.86547184,N,00104.33452825,W,1,05,2.87,+0.00,M,00.000,M,,*59
$GPGGA,000107.90,5333.86547184,N,00104.33452825,W,1,05,2.87,+0.00,M,00.000,M,,*58
$GPGGA,000108.00,5333.86547184,N,00104.33452825,W,1,05,2.87,+0.00,M,00.000,M,,*5E
$GPGGA,000108.10,5333.86547184,N,00104.33452825,W,1,05,2.87,+0.00,M,00.000,M,,*5F
$GPGGA,000108.20,5333.86547184,N,00104.33452825,W,1,05,2.87,+0.00,M,00.000,M,,*5C
$GPGGA,000108.30,5333.86547184,N,00104.33452825,W,1,05,2.87,+0.00,M,00.000,M,,*5D
$GPGGA,000108.40,5333.86547184,N,00104.33452825,W,1,05,2.87,+0.00,M,00.000,M,,*5A
$GPGGA,000108.50,5333.86547184,N,00104.33452825,W,1,05,2.87,+0.00,M,00.000,M,,*5B
$GPGGA,000108.60,5333.86547184,N,00104.33452825,W,1,05,2.87,+0.00,M,00.000,M,,*58
$GPGGA,000108.70,5333.86547184,N,00104.33452825,W,1,05,2.87,+0.00,M,00.000,M,,*59
$GPGGA,000108.80,5333.86547184,N,00104.33452825,W,1,05,2.87,+0.00,M,00.000,M,,*56
$GPGGA,000108.90,5333.86547184,N,00104.33452825,W,1,05,2.87,+0.00,M,00.000,M,,*57
$GPGGA,000109.00,5333.86547184,N,00104.33452825,W,1,05,2.87,+0.00,M,00.000,M,,*5F
$GPGGA,000109.10,5333.86547184,N,00104.33452825,W,1,05,2.87,+0.00,M,00.000,M,,*5E
$GPGGA,000109.20,5333.86547184,N,00104.33452825,W,1,05,2.87,+0.00,M,00.000,M,,*5D
$GPGGA,000109.30,5333.86547184,N,00104.33452825,W,1,05,2.87,+0.00,M,00.000,M,,*5C
$GPGGA,000109.40,5333.86547184,N,00104.33452825,W,1,05,2.87,+0.00,M,00.000,M,,*5B
$GPGGA,000109.50,5333.86547184,N,00104.33452825,W,1,05,2.87,+0.00,M,00.000,M,,*5A
$GPGGA,000109.60,5333.86547184,N,00104.33452825,W,1,05,2.87,+0.00,M,00.000,M,,*59
$GPGGA,000109.70,5333.86547184,N,00104.33452825,W,1,05,2.87,+0.00,M,00.000,M,,*58
$GPGGA,000109.80,5333.86547184,N,00104.33452825,W,1,05,2.87,+0.00,M,00.000,M,,*57
$GPGGA,000109.90,5333.86547184,N,00104.33452825,W,1,05,2.87,+0.00,M,00.000,M,,*56
$GPGGA,000110.00,5333.86547184,N,00104.33452825,W,1,05,2.87,+0.00,M,00.000,M,,*57
$GPGGA,000110.10,5333.86547184,N,00104.33452825,W,1,05,2.87,+0.00,M,00.000,M,,*56
$GPGGA,000110.20,5333.86547184,N,00104.33452825,W,1,05,2.87,+0.00,M,00.000,M,,*55
$GPGGA,000110.30,5333.86547184,N,00104.33452825,W,1,05,2.87,+0.00,M,00.000,M,,*54
$GPGGA,000110.40,5333.86547184,N,00104.33452825,W,1,05,2.87,+0.00,M,00.000,M,,*53
$GPGGA,000110.50,5333.86547184,N,00104.33452825,W,1,05,2.87,+0.00,M,00.000,M,,*52
$GPGGA,000110.60,5333.86547184,N,00104.33452825,W,1,05,2.87,+0.00,M,00.000,M,,*51
$GPGGA,000110.70,5333.86547184,N,00104.33452825,W,1,05,2.87,+0.00,M,00.000,M,,*50
$GPGGA,000110.80,5333.86547184,N,00104.33452825,W,1,05,2.87,+0.00,M,00.000,M,,*5F
$GPGGA,000110.90,5333.86547184,N,00104.33452825,W,1,05,2.87,+0.00,M,00.000,M,,*5E
$GPGGA,000111.00,5333.86547184,N,00104.33452825,W,1,05,2.87,+0.00,M,00.000,M,,*56
$GPGGA,000111.10,5333.86547184,N,00104.33452825,W,1,05,2.87,+0.00,M,00.000,M,,*57
$GPGGA,000111.20,5333.86547184,N,00104.33452825,W,1,05,2.87,+0.00,M,00.000,M,,*54
$GPGGA,000111.30,5333.86547184,N,00104.33452825,W,1,05,2.87,+0.00,M,00.000,M,,*55
$GPGGA,000111.40,5333.86547184,N,00104.33452825,W,1,05,2.87,+0.00,M,00.000,M,,*52
$GPGGA,000111.50,5333.86547184,N,00104.33452825,W,1,05,2.87,+0.00,M,00.000,M,,*53
$GPGGA,000111.60,5333.86547184,N,00104.33452825,W,1,05,2.87,+0.00,M,00.000,M,,*50
$GPGGA,000111.70,5333.86547184,N,00104.33452825,W,1,05,2.87,+0.00,M,00.000,M,,*51
$GPGGA,000111.80,5333.86547184,N,00104.33452825,W,1,05,2.87,+0.00,M,00.000,M,,*5E
$GPGGA,000111.90,5333.86547184,N,00104.33452825,W,1,05,2.87,+0.00,M,00.000,M,,*5F
$GPGGA,000112.00,5333.86547184,N,00104.33452825,W,1,05,2.87,+0.00,M,00.000,M,,*55
$GPGGA,000112.10,5333.86547184,N,00104.33452825,W,1,05,2.87,+0.00,M,00.000,M,,*54
